City_ID,City,Country,Date,Lat,Lng,Max Temp,Humidity,Cloudiness,Wind Speed,Current Description,Rain inches (last 3 hours),Snow inches (last 3 hours)
0,Tessalit,ML,11/4/2019 8:02,20.2,1.01,88.07,14,0,11.21,clear sky,0,0
1,Atuona,PF,11/4/2019 8:02,-9.8,-139.03,80.33,76,0,18.99,clear sky,0,0
2,Mataura,NZ,11/4/2019 8:02,-46.19,168.86,66,50,100,4,overcast clouds,0,0
3,Ulladulla,AU,11/4/2019 8:02,-35.36,150.48,66.2,77,75,10.29,broken clouds,0,0
4,Ocos,GT,11/4/2019 8:02,14.51,-92.19,73.4,94,20,2.24,few clouds,0,0
5,Kapaa,US,11/4/2019 8:02,22.08,-159.32,77,78,90,3.06,overcast clouds,0,0
6,Arraial Do Cabo,BR,11/4/2019 8:02,-22.97,-42.02,75.22,86,99,18.95,overcast clouds,0,0
7,Phek,IN,11/4/2019 8:02,25.7,94.46,71.29,67,6,1.99,light rain,1.25,0
8,Lebu,ET,11/4/2019 8:02,8.96,38.73,66.74,52,87,12.28,overcast clouds,0,0
9,Saint-Philippe,CA,11/4/2019 8:02,45.36,-73.48,37.4,78,90,12.75,overcast clouds,0,0
10,Jamestown,AU,11/4/2019 8:02,-33.21,138.6,54.95,51,0,14.9,clear sky,0,0
11,Pitimbu,BR,11/4/2019 8:02,-7.47,-34.81,73.4,94,75,4.7,broken clouds,0,0
12,Adrar,DZ,11/4/2019 8:02,27.87,-0.29,62.6,42,0,4.7,clear sky,0,0
13,Avarua,CK,11/4/2019 8:02,-21.21,-159.78,69.8,64,100,4.7,overcast clouds,0,0
14,Port Lincoln,AU,11/4/2019 8:02,-34.72,135.86,56.66,64,6,11.59,clear sky,0,0
15,Cape Town,ZA,11/4/2019 8:02,-33.93,18.42,73.99,49,23,8.05,few clouds,0,0
16,Galle,GN,11/4/2019 8:02,10.08,-12.83,77.81,73,70,0.49,broken clouds,0,0
17,New Norfolk,AU,11/4/2019 8:02,-42.78,147.06,55,58,75,12.75,broken clouds,0,0
18,Cabo San Lucas,MX,11/4/2019 8:02,22.89,-109.91,73.99,79,50,1.88,scattered clouds,0,0
19,Ushuaia,AR,11/4/2019 8:01,-54.81,-68.31,37.4,86,90,29.97,light intensity drizzle,0,0
20,Bitung,ID,11/4/2019 8:02,1.44,125.19,86,70,40,2.24,scattered clouds,0,0
21,Noumea,NC,11/4/2019 8:02,-22.28,166.46,77,47,0,9.17,clear sky,0,0
22,Touros,BR,11/4/2019 8:02,-5.2,-35.46,73.4,88,40,3.36,scattered clouds,0,0
23,Oranjemund,ZA,11/4/2019 8:02,-28.55,16.43,75.49,41,0,9.98,clear sky,0,0
24,Rikitea,PF,11/4/2019 8:02,-23.12,-134.97,74.26,89,100,14.9,overcast clouds,0,0
25,Shumikha,RU,11/4/2019 8:03,55.23,63.28,22.41,83,0,2.8,clear sky,0,0
26,Diego De Almagro,CL,11/4/2019 8:03,-26.39,-70.05,48.15,76,0,0.36,clear sky,0,0
27,Ilulissat,GL,11/4/2019 8:03,69.22,-51.1,24.8,45,60,4.7,broken clouds,0,0
28,Mbanza-Ngungu,CD,11/4/2019 8:03,-5.25,14.87,73.92,91,100,3.98,light rain,0.19,0
29,Busselton,AU,11/4/2019 8:02,-33.64,115.35,73,35,0,11.5,clear sky,0,0
30,Hithadhoo,MV,11/4/2019 8:03,-0.6,73.08,83.25,65,79,3.91,broken clouds,0,0
31,Barrow,AR,11/4/2019 8:03,-38.31,-60.23,60.91,59,0,19.51,clear sky,0,0
32,Butaritari,KI,11/4/2019 8:03,3.07,172.79,83.88,77,27,16.2,scattered clouds,0,0
33,Albany,US,11/4/2019 7:59,42.65,-73.75,34,86,75,1.57,broken clouds,0,0
34,Krasnoarmeysk,RU,11/4/2019 8:03,56.12,38.15,45,93,90,13.42,overcast clouds,0,0
35,Labuhan,ID,11/4/2019 8:03,-2.54,115.51,88.23,54,92,2.26,overcast clouds,0,0
36,Kahului,US,11/4/2019 8:03,20.89,-156.47,75.2,73,1,8.05,clear sky,0,0
37,Buala,SB,11/4/2019 8:03,-8.15,159.59,79.88,81,89,4.03,light rain,0.38,0
38,Nizhniy Tsasuchey,RU,11/4/2019 8:03,50.52,115.13,26.26,45,0,13.94,clear sky,0,0
39,Punta Arenas,CL,11/4/2019 8:03,-53.16,-70.91,39.2,86,75,35.57,light intensity shower rain,0,0
40,Port Alfred,ZA,11/4/2019 8:03,-33.59,26.89,69.01,73,20,1.01,few clouds,0,0
41,Chuy,UY,11/4/2019 8:03,-33.69,-53.46,57.97,90,23,7.18,few clouds,0,0
42,Puerto Del Rosario,ES,11/4/2019 8:03,28.5,-13.86,69.8,83,75,9.17,broken clouds,0,0
43,Cambuga,PH,11/4/2019 8:03,13.62,122.45,80.8,81,0,8.88,clear sky,0,0
44,Nome,US,11/4/2019 8:03,30.04,-94.42,53.6,87,1,3.36,clear sky,0,0
45,Port Keats,AU,11/4/2019 8:03,-14.25,129.55,86.07,64,25,11.92,scattered clouds,0,0
46,Faanui,PF,11/4/2019 8:03,-16.48,-151.75,79.09,84,50,11.45,moderate rain,3.31,0
47,Qaanaaq,GL,11/4/2019 8:03,77.48,-69.36,15.55,73,100,13.11,overcast clouds,0,0
48,Vaini,IN,11/4/2019 8:03,15.34,74.49,84.2,58,40,6.93,scattered clouds,0,0
49,Avera,US,11/4/2019 8:03,33.19,-82.53,46.4,93,1,5.03,clear sky,0,0
50,Ngunguru,NZ,11/4/2019 8:03,-35.62,174.5,64,76,64,4.36,broken clouds,0,0
51,Saint Anthony,US,11/4/2019 8:03,43.97,-111.68,33.8,73,90,2.35,overcast clouds,0,0
52,Alta Floresta,BR,11/4/2019 8:03,-9.87,-56.08,72.23,83,68,2.66,broken clouds,0,0
53,Cap Malheureux,MU,11/4/2019 8:03,-19.98,57.61,80.6,69,40,18.34,scattered clouds,0,0
54,Blackfoot,US,11/4/2019 8:03,43.19,-112.35,36,47,1,6.93,clear sky,0,0
55,Mehamn,NO,11/4/2019 8:03,71.03,27.85,33.8,85,75,28.86,broken clouds,0,0
56,Tiksi,RU,11/4/2019 8:03,71.64,128.87,1.4,88,97,5.19,overcast clouds,0,0
57,East London,ZA,11/4/2019 8:03,-33.02,27.91,68,64,75,8.05,broken clouds,0,0
58,Mar Del Plata,AR,11/4/2019 8:03,-46.43,-67.52,48.58,51,0,28.41,clear sky,0,0
59,Port Lavaca,US,11/4/2019 8:03,28.61,-96.63,60.01,87,40,3.36,scattered clouds,0,0
60,Norman Wells,CA,11/4/2019 8:03,65.28,-126.83,12.2,92,90,2.24,light snow,0,0
61,Colwyn Bay,GB,11/4/2019 8:02,53.29,-3.71,48.2,87,100,2.24,light rain,2.31,0
62,Aksarka,RU,11/4/2019 8:03,66.56,67.8,8.89,92,91,16.08,overcast clouds,0,0
63,Khatanga,RU,11/4/2019 8:03,71.98,102.47,-8.85,96,100,11.41,light snow,0,0.13
64,Lagoa,PT,11/4/2019 8:03,37.14,-8.45,64,93,40,6.93,scattered clouds,0,0
65,Porbandar,IN,11/4/2019 8:03,21.64,69.61,89.6,59,40,6.93,scattered clouds,0,0
66,Tuktoyaktuk,CA,11/4/2019 8:03,69.44,-133.03,23.14,93,100,10.51,light snow,0,0.5
67,Bluff,AU,11/4/2019 8:03,-23.58,149.07,81.37,48,16,3.87,few clouds,0,0
68,Puerto Ayora,EC,11/4/2019 8:03,-0.74,-90.35,69.01,89,60,5.99,broken clouds,0,0
69,Pueblo,US,11/4/2019 7:59,38.25,-104.61,39.2,74,1,8.05,clear sky,0,0
70,Wawa,NG,11/4/2019 8:03,9.9,4.41,85.59,60,97,0.51,overcast clouds,0,0
71,Yellowknife,CA,11/4/2019 8:03,62.45,-114.38,10.4,85,90,5.82,light snow,0,0
72,Provideniya,RU,11/4/2019 8:03,64.42,-173.23,17.67,86,0,1.43,clear sky,0,0
73,Bredasdorp,ZA,11/4/2019 8:03,-34.53,20.04,71.01,62,8,11.99,clear sky,0,0
74,Pevek,RU,11/4/2019 8:03,69.7,170.27,13.48,79,22,16.67,few clouds,0,0
75,Khorinsk,RU,11/4/2019 8:03,52.16,109.78,21.61,49,0,7.14,clear sky,0,0
76,Abu Dhabi,AE,11/4/2019 8:03,24.47,54.37,86,55,0,6.93,clear sky,0,0
77,San Ramon,NI,11/4/2019 8:03,12.92,-85.84,63.93,98,18,4.7,few clouds,0,0
78,Yaan,NG,11/4/2019 8:03,7.38,8.57,84.94,69,27,2.86,scattered clouds,0,0
79,Bhattiprolu,IN,11/4/2019 8:03,16.1,80.78,91.4,59,20,8.05,haze,0,0
80,Dikson,RU,11/4/2019 8:03,73.51,80.55,12.65,92,100,20.56,light snow,0,0.88
81,Namibe,AO,11/4/2019 8:03,-15.19,12.15,77,73,90,5.66,overcast clouds,0,0
82,Castro,CL,11/4/2019 8:03,-42.48,-73.76,42.8,93,40,6.93,scattered clouds,0,0
83,Belyy Yar,RU,11/4/2019 8:03,53.6,91.39,28.4,68,100,2.24,overcast clouds,0,0
84,Tignere,CM,11/4/2019 8:03,7.37,12.65,84,55,89,1.77,overcast clouds,0,0
85,Hobart,AU,11/4/2019 8:00,-42.88,147.33,55,58,75,12.75,broken clouds,0,0
86,Katobu,ID,11/4/2019 8:03,-4.94,122.53,86.85,58,78,3.24,light rain,0.5,0
87,Hilo,US,11/4/2019 8:03,19.71,-155.08,78.8,74,90,5.03,overcast clouds,0,0
88,Tuatapere,NZ,11/4/2019 8:03,-46.13,167.69,66,50,100,4,light rain,0.13,0
89,Okrika,NG,11/4/2019 8:03,5.52,7.78,87.33,65,43,2.53,scattered clouds,0,0
90,Xichang,CN,11/4/2019 8:03,27.88,102.25,51.08,82,57,4.29,light rain,2.19,0
91,Hobyo,SO,11/4/2019 8:03,5.35,48.53,88.68,53,100,13.62,light rain,0.81,0
92,Taoudenni,ML,11/4/2019 8:03,22.68,-3.98,81.9,23,0,6.98,clear sky,0,0
93,Luanda,AO,11/4/2019 8:03,-8.83,13.24,82.4,69,40,4.94,scattered clouds,0,0
94,Saskylakh,RU,11/4/2019 8:03,71.97,114.09,-17.78,96,81,8.99,broken clouds,0,0
95,Nassau,AT,11/4/2019 8:03,46.81,15.34,52,93,75,3.36,light rain,0,0
96,Shangqiu,CN,11/4/2019 8:03,34.42,115.65,66.99,53,0,3.6,clear sky,0,0
97,Lazaro Cardenas,MX,11/4/2019 8:03,28.39,-105.62,55.99,82,84,1.99,broken clouds,0,0
98,Ustye,RU,11/4/2019 8:03,58.76,27.79,38.07,92,100,10.13,light rain,1.19,0
99,Sola,TZ,11/4/2019 8:03,-3.17,33.8,82.65,30,60,5.86,broken clouds,0,0
100,Mezen,RU,11/4/2019 8:03,65.85,44.24,29.75,92,61,16.51,broken clouds,0,0
101,Hofn,IS,11/4/2019 8:03,64.25,-15.21,37.15,72,100,21.79,overcast clouds,0,0
102,Lopsmarka,NO,11/4/2019 8:03,67.31,14.45,35.6,93,75,13.87,shower rain,0,0
103,Esperance,AU,11/4/2019 8:03,-33.86,121.89,71.6,53,0,16.11,clear sky,0,0
104,Iqaluit,CA,11/4/2019 8:03,63.75,-68.52,23,67,40,3.36,scattered clouds,0,0
105,Torbay,CA,11/4/2019 8:03,47.66,-52.73,45,87,40,18.34,scattered clouds,0,0
106,Luoyang,CN,11/4/2019 8:03,34.66,112.42,66.47,44,0,1.3,clear sky,0,0
107,Luino,IT,11/4/2019 8:03,46,8.74,55.99,100,0,1.12,clear sky,0,0
108,Morki,RU,11/4/2019 8:03,56.43,49,33.66,84,100,14.29,light rain,0.13,0
109,Paamiut,GL,11/4/2019 8:03,61.99,-49.67,32.47,49,100,8.77,overcast clouds,0,0
110,Miami Beach,US,11/4/2019 8:03,45.45,-84.56,37.99,100,90,4.7,overcast clouds,0,0
111,Chernaya Kholunitsa,RU,11/4/2019 8:03,58.85,51.72,31.89,91,100,12.39,overcast clouds,0,0
112,Goderich,CA,11/4/2019 8:00,43.74,-81.71,48,85,100,16.84,light rain,0.69,0
113,Vestmannaeyjar,IS,11/4/2019 8:03,63.44,-20.27,39.2,60,75,18.34,broken clouds,0,0
114,Upernavik,GL,11/4/2019 8:03,72.79,-56.15,21.63,64,100,8.46,overcast clouds,0,0
115,San Patricio,PY,11/4/2019 8:03,-26.98,-56.83,69.76,98,14,3.85,light rain,1,0
116,Bandarbeyla,SO,11/4/2019 8:03,9.49,50.81,82.04,78,100,10.76,light rain,2.88,0
117,Nikolskoye,RU,11/4/2019 8:03,59.7,30.79,35.6,93,90,8.95,shower sleet,0,0
118,Mahina,ML,11/4/2019 8:03,13.76,-10.85,85.64,22,66,5.08,broken clouds,0,0
119,Luderitz,NA,11/4/2019 8:03,-26.65,15.16,75.2,36,0,3.36,clear sky,0,0
120,Ariquemes,BR,11/4/2019 8:03,-9.91,-63.03,68.77,85,97,1.45,overcast clouds,0,0
121,Vao,EE,11/4/2019 8:03,59.1,26.19,38.3,91,100,11.52,light rain,0.56,0
122,Hermanus,ZA,11/4/2019 8:03,-34.42,19.24,73.99,62,33,11.99,scattered clouds,0,0
123,Tasiilaq,GL,11/4/2019 8:03,65.61,-37.64,28.4,92,98,2.24,light snow,0,0.13
124,Vysokogornyy,RU,11/4/2019 8:03,50.1,139.13,17.91,95,94,3.62,overcast clouds,0,0
125,Boca Do Acre,BR,11/4/2019 8:03,-8.76,-67.39,70.43,96,100,1.25,overcast clouds,0,0
126,Jalpa,MX,11/4/2019 8:03,21.63,-102.98,59.59,77,0,2.62,clear sky,0,0
127,Turukhansk,RU,11/4/2019 8:03,65.8,87.96,4.53,93,100,6.33,light snow,0,0.19
128,The Valley,AI,11/4/2019 8:01,18.22,-63.06,80.6,83,20,5.82,thunderstorm,0,0
129,Srednekolymsk,RU,11/4/2019 8:03,67.46,153.71,0.7,90,94,3.24,overcast clouds,0,0
130,Port Hardy,CA,11/4/2019 8:03,50.7,-127.42,53.6,87,40,5.82,scattered clouds,0,0
131,Voh,NC,11/4/2019 8:03,-20.95,164.69,72.39,73,21,12.62,few clouds,0,0
132,Bethel,US,11/4/2019 8:03,60.79,-161.76,17.6,72,1,17.22,clear sky,0,0
133,Henties Bay,NA,11/4/2019 8:03,-22.12,14.28,96.33,6,0,10.58,clear sky,0,0
134,Chara,GR,11/4/2019 8:03,39.42,22.43,71.6,68,40,8.05,scattered clouds,0,0
135,Kungurtug,RU,11/4/2019 8:03,50.6,97.53,28.36,43,100,1.88,overcast clouds,0,0
136,Yulara,AU,11/4/2019 8:03,-25.24,130.99,86,7,0,10.29,clear sky,0,0
137,Xiaoyi,CN,11/4/2019 8:03,37.15,111.77,55.22,43,0,3.38,clear sky,0,0
138,Fairbanks,US,11/4/2019 8:01,64.84,-147.72,12.99,92,1,4.7,clear sky,0,0
139,Grindavik,IS,11/4/2019 8:03,63.84,-22.43,37.4,100,90,16.11,light intensity drizzle,0,0
140,Berlevag,NO,11/4/2019 8:03,70.86,29.09,33.8,92,90,43.62,overcast clouds,0,0
141,Vanavara,RU,11/4/2019 8:03,60.35,102.28,7.86,92,100,5.39,overcast clouds,0,0
142,Coahuayana,MX,11/4/2019 8:03,18.62,-100.35,68.54,86,0,2.48,clear sky,0,0
143,Kaitangata,NZ,11/4/2019 8:03,-46.28,169.85,54,90,45,5.01,scattered clouds,0,0
144,Sobolevo,RU,11/4/2019 8:03,54.43,31.9,51.8,88,100,16.13,overcast clouds,0,0
145,Clyde River,CA,11/4/2019 8:03,70.47,-68.59,12.2,72,40,5.82,scattered clouds,0,0
146,Mandalgovi,MN,11/4/2019 8:03,45.76,106.27,33.39,40,25,9.37,scattered clouds,0,0
147,Charters Towers,AU,11/4/2019 8:03,-20.07,146.27,78.24,57,100,10.11,overcast clouds,0,0
148,Pochutla,MX,11/4/2019 8:03,15.74,-96.47,75,89,0,5.99,clear sky,0,0
149,Gazli,UZ,11/4/2019 8:03,40.13,63.45,46.6,31,0,12.68,clear sky,0,0
150,Mayo,CA,11/4/2019 8:03,63.59,-135.9,21.2,92,90,2.24,overcast clouds,0,0
151,Qaqortoq,GL,11/4/2019 8:03,60.72,-46.03,24.8,53,20,5.82,few clouds,0,0
152,Longyearbyen,NO,11/4/2019 8:03,78.22,15.63,12.2,66,20,14.99,few clouds,0,0
153,Burns Lake,CA,11/4/2019 8:00,54.23,-125.76,38.26,97,100,2.53,overcast clouds,0,0
154,Hamilton,CA,11/4/2019 7:59,43.26,-79.87,41,83,90,5.82,light rain,0,0
155,Souillac,FR,11/4/2019 8:03,45.6,-0.6,55.4,93,67,14.99,light rain,0,0
156,Timmins,CA,11/4/2019 8:03,48.48,-81.33,26.6,100,75,4.7,broken clouds,0,0
157,Port Moresby,PG,11/4/2019 8:03,-9.47,147.16,84.2,74,20,25.59,few clouds,0,0
158,San Andres,PH,11/4/2019 8:03,13.32,122.68,80.8,81,0,8.88,clear sky,0,0
159,Havelock,US,11/4/2019 8:03,34.88,-76.9,51.01,87,1,4.41,clear sky,0,0
160,Teruel,ES,11/4/2019 8:03,40.34,-1.11,57.2,62,75,9.17,broken clouds,0,0
161,Severo-Kurilsk,RU,11/4/2019 8:03,50.68,156.12,32.43,92,26,7.85,scattered clouds,0,0
162,Alofi,NU,11/4/2019 8:03,-19.06,-169.92,68,77,100,4.7,overcast clouds,0,0
163,Emmett,US,11/4/2019 8:03,43.87,-116.5,39,74,29,3.91,scattered clouds,0,0
164,Yar-Sale,RU,11/4/2019 8:03,66.83,70.83,4.48,94,1,13.18,clear sky,0,0
165,San Pedro,AR,11/4/2019 8:03,-33.68,-59.66,64.99,85,80,2.57,broken clouds,0,0
166,Roma,IT,11/4/2019 8:01,41.89,12.48,66.99,77,40,5.82,scattered clouds,0,0
167,Candolim,IN,11/4/2019 8:03,15.52,73.76,87.8,66,20,12.75,few clouds,0,0
168,Waitati,NZ,11/4/2019 8:03,-45.75,170.57,54,93,4,5.99,clear sky,0,0
169,Neepawa,CA,11/4/2019 8:03,50.23,-99.46,24.8,92,75,8.05,broken clouds,0,0
170,Ossora,RU,11/4/2019 8:03,59.24,163.07,38.08,95,100,26.98,light rain,1.94,0
171,Ayorou,NE,11/4/2019 8:03,14.73,0.92,91.11,22,88,3.94,overcast clouds,0,0
172,Port Maria,JM,11/4/2019 8:03,18.37,-76.89,78.8,69,20,5.82,few clouds,0,0
173,Portland,US,11/4/2019 8:00,43.66,-70.25,39.2,60,1,8.05,clear sky,0,0
174,Praia Da Vitoria,PT,11/4/2019 8:03,38.73,-27.07,62.6,100,90,17.11,overcast clouds,0,0
175,Rio Gallegos,AR,11/4/2019 8:03,-51.62,-69.22,42.8,60,8,27.51,clear sky,0,0
176,College,US,11/4/2019 8:03,64.86,-147.8,15.8,92,1,4.7,clear sky,0,0
177,Karasjok,NO,11/4/2019 8:03,69.47,25.52,30.2,58,20,40.26,few clouds,0,0
178,Dudinka,RU,11/4/2019 8:03,69.41,86.18,-0.41,84,75,20.13,light shower snow,0,0
179,Kikwit,CD,11/4/2019 8:03,-5.04,18.82,83.97,61,100,4.59,overcast clouds,0,0
180,Quilmana,PE,11/4/2019 8:03,-12.95,-76.38,60.35,91,65,2.33,broken clouds,0,0
181,Samarai,PG,11/4/2019 8:03,-10.62,150.67,74.68,92,100,5.1,light rain,0.75,0
182,Price,US,11/4/2019 8:03,39.6,-110.81,34,31,1,6.93,clear sky,0,0
183,Tura,RU,11/4/2019 8:03,64.27,100.22,-7.25,88,99,1.95,overcast clouds,0,0
184,Kontagora,NG,11/4/2019 8:03,10.4,5.47,86.36,43,99,2.8,overcast clouds,0,0
185,Dzilam Gonzalez,MX,11/4/2019 8:03,21.28,-88.93,81,78,86,11.01,light rain,0.75,0
186,Bambous Virieux,MU,11/4/2019 8:03,-20.34,57.76,80.6,69,40,18.34,scattered clouds,0,0
187,Rosetta,EG,11/4/2019 8:03,31.4,30.42,73.4,69,0,5.82,clear sky,0,0
188,Tautira,PF,11/4/2019 8:03,-17.73,-149.15,78.8,83,75,3.36,light rain,0,0
189,Molina,CL,11/4/2019 8:03,-35.11,-71.28,53.6,76,100,5.82,overcast clouds,0,0
190,Sao Filipe,CV,11/4/2019 8:03,14.9,-24.5,78.94,71,32,9.08,scattered clouds,0,0
191,Nouadhibou,MR,11/4/2019 8:03,20.93,-17.03,73.4,64,0,12.75,clear sky,0,0
192,Keti Bandar,PK,11/4/2019 8:03,24.14,67.45,89.24,48,2,11.54,light rain,0.38,0
193,Atambua,ID,11/4/2019 8:03,-9.11,124.89,79.05,71,5,5.66,light rain,1.06,0
194,Cherskiy,RU,11/4/2019 8:03,68.75,161.3,14.49,89,91,1.57,overcast clouds,0,0
195,Victoria,BN,11/4/2019 8:03,5.28,115.24,89.6,70,75,8.05,broken clouds,0,0
196,Egvekinot,RU,11/4/2019 8:03,66.32,-179.17,8.31,96,60,3.51,broken clouds,0,0
197,Nalut,LY,11/4/2019 8:03,31.86,10.98,74.3,39,0,10.49,clear sky,0,0
198,Peniche,PT,11/4/2019 8:03,39.36,-9.38,64.4,72,20,9.17,few clouds,0,0
199,Ribeira Grande,PT,11/4/2019 8:03,38.52,-28.7,64.4,88,75,10.29,light intensity shower rain,0,0
200,Ancud,CL,11/4/2019 8:03,-41.87,-73.83,42.8,93,40,6.93,scattered clouds,0,0
201,Komsomolskiy,RU,11/4/2019 8:03,67.55,63.78,10.18,81,100,17.49,overcast clouds,0,0
202,Kuruman,ZA,11/4/2019 8:03,-27.46,23.43,93,12,0,1.01,clear sky,0,0
203,Akranes,IS,11/4/2019 8:03,64.32,-22.07,37.4,100,90,16.11,light intensity drizzle,0,0
204,Husavik,CA,11/4/2019 8:03,50.56,-96.99,26.01,97,83,5.01,broken clouds,0,0
205,Palmer,AU,11/4/2019 8:03,-34.85,139.16,62.01,55,40,10.29,scattered clouds,0,0
206,Kruisfontein,ZA,11/4/2019 8:03,-34,24.73,70.99,42,0,10.09,clear sky,0,0
207,Clovis,US,11/4/2019 8:03,36.83,-119.7,59,16,1,3.36,clear sky,0,0
208,Ponta Delgada,PT,11/4/2019 8:03,37.73,-25.67,64.4,82,40,2.24,scattered clouds,0,0
209,San Cristobal,HN,11/4/2019 8:03,14.68,-86.92,63.32,98,80,3.04,broken clouds,0,0
210,Hatillo,PR,11/4/2019 8:03,18.49,-66.83,73.99,88,1,3.36,clear sky,0,0
211,Tondano,ID,11/4/2019 8:03,1.3,124.91,86,70,40,2.24,scattered clouds,0,0
212,Madisonville,US,11/4/2019 8:03,37.33,-87.5,41,80,1,6.98,clear sky,0,0
213,San Juan,AR,11/4/2019 8:03,-31.54,-68.53,65.7,58,0,6.46,clear sky,0,0
214,Tiarei,PF,11/4/2019 8:03,-17.53,-149.33,78.8,83,75,3.36,light rain,0,0
215,Cockburn Town,TC,11/4/2019 8:03,21.46,-71.14,81.01,72,0,12.01,light rain,0.31,0
216,Zemio,CF,11/4/2019 8:03,5.02,25.13,81.73,76,13,4.7,light rain,2.69,0
217,Canico,PT,11/4/2019 8:03,32.63,-16.85,69.8,72,40,3.36,scattered clouds,0,0
218,Mongu,ZM,11/4/2019 8:03,-15.27,23.14,98.33,16,58,10.69,broken clouds,0,0
219,Carmen,PH,11/4/2019 8:03,7.36,125.71,87.8,66,75,6.93,broken clouds,0,0
220,Marzuq,YE,11/4/2019 8:03,14.4,46.47,85.62,21,17,13.13,few clouds,0,0
221,Arti,RU,11/4/2019 8:03,56.43,58.53,28.27,78,100,14.97,overcast clouds,0,0
222,Vila Praia De Ancora,PT,11/4/2019 8:03,41.81,-8.85,63,87,75,6.93,broken clouds,0,0
223,Kirkuk,IQ,11/4/2019 8:03,35.47,44.4,73.45,24,0,6.8,clear sky,0,0
224,Ucluelet,CA,11/4/2019 8:03,48.94,-125.55,48,93,21,2.19,few clouds,0,0
225,Tocopilla,CL,11/4/2019 8:03,-22.09,-70.2,50.27,32,0,3.33,clear sky,0,0
226,Cancun,MX,11/4/2019 8:02,21.17,-86.85,78.8,100,40,2.24,scattered clouds,0,0
227,Mahebourg,MU,11/4/2019 8:01,-20.41,57.7,80.6,69,40,18.34,scattered clouds,0,0
228,Upata,VE,11/4/2019 8:03,8.02,-62.41,77,90,24,1.99,few clouds,0,0
229,Karwar,IN,11/4/2019 8:03,14.8,74.13,83.08,73,0,9.15,clear sky,0,0
230,Saint George,GR,11/4/2019 8:03,39.45,22.34,71.6,68,40,8.05,scattered clouds,0,0
231,Codrington,AU,11/4/2019 8:03,-28.95,153.24,93.2,45,40,8.05,scattered clouds,0,0
232,Muskogee,US,11/4/2019 8:03,35.75,-95.37,50,75,1,5.82,clear sky,0,0
233,Na Wa,TH,11/4/2019 8:03,17.49,104.1,86,51,75,6.93,broken clouds,0,0
234,Holme,DK,11/4/2019 8:03,56.11,10.17,50,100,100,16.11,light rain,0,0
235,Khakhea,BW,11/4/2019 8:03,-24.69,23.5,93.52,11,0,7.96,clear sky,0,0
236,Hambantota,LK,11/4/2019 8:03,6.12,81.12,87.8,70,75,4.7,broken clouds,0,0
237,Springbok,ZA,11/4/2019 8:01,-29.67,17.88,82.4,9,0,8.05,clear sky,0,0
238,Shasta Lake,US,11/4/2019 8:03,40.68,-122.36,52,37,1,2.15,clear sky,0,0
239,Tepalcatepec,MX,11/4/2019 8:03,19.19,-102.85,63.77,79,100,3.65,overcast clouds,0,0
240,Sehithwa,BW,11/4/2019 8:03,-20.47,22.7,93.51,24,0,9.22,clear sky,0,0
241,Udachnyy,RU,11/4/2019 8:03,66.42,112.4,-9.41,76,75,4.47,broken clouds,0,0
242,Santa Cruz,BR,11/4/2019 8:03,-6.22,-36.02,71.67,89,79,7.4,broken clouds,0,0
243,Kenai,US,11/4/2019 8:03,60.55,-151.26,37,70,90,5.82,overcast clouds,0,0
244,Evensk,RU,11/4/2019 8:03,61.92,159.24,27.03,79,97,11.18,overcast clouds,0,0
245,Banda Aceh,ID,11/4/2019 8:00,5.56,95.32,85.86,62,66,1.41,light rain,0.5,0
246,Beloha,MG,11/4/2019 8:03,-25.17,45.06,97.95,17,8,11.27,clear sky,0,0
247,Waingapu,ID,11/4/2019 8:03,-9.65,120.26,82.96,71,61,15.23,broken clouds,0,0
248,Dongzhen,CN,11/4/2019 8:03,43.33,129.73,31.64,49,0,1.97,clear sky,0,0
249,Celestun,MX,11/4/2019 8:03,20.87,-90.4,79.39,82,82,15.41,broken clouds,0,0
250,Samoded,RU,11/4/2019 8:03,63.61,40.52,26.11,84,78,9.08,broken clouds,0,0
251,Yanam,IN,11/4/2019 8:03,16.73,82.22,91.4,41,0,3.36,clear sky,0,0
252,Laguna,BZ,11/4/2019 8:03,16.17,-88.94,73.4,94,13,3.29,light rain,0.13,0
253,Tosya,TR,11/4/2019 8:03,41.02,34.04,41,75,41,2.24,scattered clouds,0,0
254,Ketchikan,US,11/4/2019 8:03,55.34,-131.65,53.6,100,90,6.93,overcast clouds,0,0
255,Vila Franca Do Campo,PT,11/4/2019 8:03,37.72,-25.43,64.4,82,40,2.24,scattered clouds,0,0
256,Champerico,MX,11/4/2019 8:04,16.38,-93.6,65.84,94,100,2.68,overcast clouds,0,0
257,Altay,CN,11/4/2019 8:04,47.83,88.13,43.88,58,97,4.36,overcast clouds,0,0
258,Ponta Do Sol,BR,11/4/2019 8:04,-20.63,-46,67.82,82,0,0.89,clear sky,0,0
259,Arbon,CH,11/4/2019 8:04,47.51,9.43,51.8,81,20,6.93,few clouds,0,0
260,Ouadda,CF,11/4/2019 8:04,8.07,22.4,85.77,35,0,9.64,clear sky,0,0
261,Hasaki,JP,11/4/2019 8:04,35.73,140.83,59,72,20,9.17,few clouds,0,0
262,Constitucion,MX,11/4/2019 8:04,23.99,-104.67,55.99,79,100,2.21,light rain,0.75,0
263,Kloulklubed,PW,11/4/2019 8:04,7.04,134.26,78.8,88,90,10.29,overcast clouds,0,0
264,Banjar,ID,11/4/2019 8:04,-7.37,108.54,78.98,74,80,6.67,light rain,0.19,0
265,Ibiapina,BR,11/4/2019 8:04,-3.92,-40.89,69.19,88,49,13.85,scattered clouds,0,0
266,Ahipara,NZ,11/4/2019 8:04,-35.17,173.16,61.02,81,100,11.25,overcast clouds,0,0
267,Bonthe,SL,11/4/2019 8:04,7.53,-12.5,80.69,79,0,4.23,clear sky,0,0
268,Biltine,TD,11/4/2019 8:04,14.53,20.93,91.04,10,0,19.55,clear sky,0,0
269,Mogadishu,SO,11/4/2019 7:59,2.04,45.34,86,66,40,11.41,scattered clouds,0,0
270,Karratha,AU,11/4/2019 8:00,-20.74,116.85,82,50,99,14.9,overcast clouds,0,0
271,Svetlogorsk,RU,11/4/2019 8:04,53.14,59.15,19.4,92,40,2.24,scattered clouds,0,0
272,Takoradi,GH,11/4/2019 8:04,4.89,-1.75,82.94,71,2,2.13,clear sky,0,0
273,San Ignacio,PE,11/4/2019 8:04,-5.15,-79,62.22,98,100,0.2,moderate rain,3.25,0
274,Marystown,CA,11/4/2019 8:04,47.17,-55.16,44.01,2,0,1.01,clear sky,0,0
275,Shimoda,JP,11/4/2019 8:04,34.7,138.93,64.4,55,20,9.17,few clouds,0,0
276,Kamenka,MD,11/4/2019 8:04,48.03,28.7,55.99,79,0,7,clear sky,0,0
277,Luba,PH,11/4/2019 8:04,17.32,120.7,77.22,91,100,1.59,moderate rain,7.5,0
278,Maniitsoq,GL,11/4/2019 8:04,65.42,-52.9,29.86,64,100,12.44,overcast clouds,0,0
279,Ornskoldsvik,SE,11/4/2019 8:04,63.29,18.72,21.2,85,20,5.82,few clouds,0,0
280,Whakatane,NZ,11/4/2019 8:04,-37.96,176.99,71.01,40,0,3.53,clear sky,0,0
281,Port Elizabeth,US,11/4/2019 8:03,39.31,-74.98,39.99,100,1,3.11,clear sky,0,0
282,Port Blair,IN,11/4/2019 8:04,11.67,92.75,80.71,85,100,23.94,light rain,2.81,0
283,Hingatungan,PH,11/4/2019 8:04,10.58,125.19,77.74,83,100,2.42,overcast clouds,0,0
284,Eugene,US,11/4/2019 8:04,44.05,-123.1,43,93,1,0.25,mist,0,0
285,Lompoc,US,11/4/2019 8:04,34.64,-120.46,50,56,1,5.26,clear sky,0,0
286,Itarema,BR,11/4/2019 8:04,-2.92,-39.92,78.42,82,80,8.34,light rain,0.25,0
287,Salaga,GH,11/4/2019 8:04,8.55,-0.52,81.68,75,100,2.44,overcast clouds,0,0
288,Itoman,JP,11/4/2019 8:04,26.12,127.67,77,69,75,16.11,broken clouds,0,0
289,Talnakh,RU,11/4/2019 8:04,69.49,88.39,-0.41,84,75,20.13,light shower snow,0,0
290,Bull Savanna,JM,11/4/2019 8:04,17.89,-77.59,67.03,91,0,4.68,clear sky,0,0
291,Sibolga,ID,11/4/2019 8:04,1.74,98.78,79.47,70,99,4.18,overcast clouds,0,0
292,Sibu,MY,11/4/2019 8:04,2.29,111.83,91.4,59,75,3.36,broken clouds,0,0
293,Gushikawa,JP,11/4/2019 8:04,26.35,127.87,77,69,75,16.11,broken clouds,0,0
294,Obo,CF,11/4/2019 8:04,5.39,26.49,85.24,62,11,4.65,few clouds,0,0
295,Steamboat Springs,US,11/4/2019 8:03,40.48,-106.83,35.6,63,90,9.17,overcast clouds,0,0
296,Abu Zabad,SD,11/4/2019 8:04,12.35,29.25,92.88,15,0,15.66,clear sky,0,0
297,Pachora,IN,11/4/2019 8:04,20.66,75.35,83.41,58,74,7.02,broken clouds,0,0
298,Port Hueneme,US,11/4/2019 8:04,34.15,-119.2,59,75,1,1.52,clear sky,0,0
299,Airai,TL,11/4/2019 8:04,-8.93,125.41,72.07,79,23,4.92,light rain,1.13,0
300,Tripoli,GR,11/4/2019 8:00,37.51,22.37,71.01,88,40,4.7,smoke,0,0
301,Sitangkai,PH,11/4/2019 8:04,4.66,119.39,83.89,70,46,8.86,scattered clouds,0,0
302,Marfino,RU,11/4/2019 8:04,56.07,37.56,45,93,90,13.42,overcast clouds,0,0
303,Obukhiv,UA,11/4/2019 8:04,50.11,30.63,57.2,87,90,11.18,overcast clouds,0,0
304,Carnarvon,ZA,11/4/2019 8:04,-30.97,22.13,82.06,8,1,9.78,clear sky,0,0
305,Guerrero Negro,MX,11/4/2019 8:04,27.97,-114.04,65.77,66,42,4.99,scattered clouds,0,0
306,Padang,ID,11/4/2019 8:04,-0.92,100.36,75.31,79,85,4.47,light rain,0.44,0
307,Sur,OM,11/4/2019 8:04,22.57,59.53,83.71,59,0,13.65,clear sky,0,0
308,Maumere,ID,11/4/2019 8:04,-8.63,122.22,81.34,64,67,2.42,broken clouds,0,0
309,Anloga,GH,11/4/2019 8:04,5.79,0.9,77,88,20,4.7,few clouds,0,0
310,Kangaatsiaq,GL,11/4/2019 8:04,68.31,-53.46,24.73,60,96,12.48,overcast clouds,0,0
311,Coolum Beach,AU,11/4/2019 8:04,-26.53,153.09,75,93,64,3.83,moderate rain,8.44,0
312,San Jose,HN,11/4/2019 8:04,14.25,-87.96,60.89,91,5,7.29,clear sky,0,0
313,Bathsheba,BB,11/4/2019 8:04,13.22,-59.52,82.4,74,20,14.99,few clouds,0,0
314,Evans,US,11/4/2019 8:04,40.38,-104.69,42.8,60,90,3.71,overcast clouds,0,0
315,Angoche,MZ,11/4/2019 8:04,-16.23,39.91,89.04,52,2,12.86,light rain,0.81,0
316,Aswan,EG,11/4/2019 7:59,24.09,32.9,69.8,37,33,8.05,scattered clouds,0,0
317,Narsaq,GL,11/4/2019 8:04,60.91,-46.05,24.8,53,20,5.82,few clouds,0,0
318,Petropavlovsk-Kamchatskiy,RU,11/4/2019 8:04,53.05,158.65,33.8,78,0,4.47,clear sky,0,0
319,Acapulco,MX,11/4/2019 8:04,16.86,-99.88,78.8,88,75,3.58,broken clouds,0,0
320,Zhengjiatun,CN,11/4/2019 8:04,43.51,123.51,39.97,25,0,7.61,clear sky,0,0
321,Barentu,ER,11/4/2019 8:04,15.11,37.59,91.35,22,0,16.4,clear sky,0,0
322,Fujin,CN,11/4/2019 8:04,47.24,132.03,32.25,48,0,3.71,clear sky,0,0
323,Sinnamary,GF,11/4/2019 8:04,5.38,-52.96,81.99,83,99,17.36,light rain,0.75,0
324,Georgetown,GY,11/4/2019 8:00,6.8,-58.16,75.2,94,20,2.24,few clouds,0,0
325,Suntar,RU,11/4/2019 8:04,62.16,117.65,10.71,81,100,7.34,overcast clouds,0,0
326,Russell,US,11/4/2019 8:04,38.9,-98.86,46.4,56,1,6.93,clear sky,0,0
327,Ghanzi,BW,11/4/2019 8:04,-21.7,21.65,93.24,17,0,12.08,clear sky,0,0
328,Quatre Cocos,MU,11/4/2019 8:04,-20.21,57.76,80.6,69,40,18.34,scattered clouds,0,0
329,Boissevain,CA,11/4/2019 8:04,49.23,-100.06,28.4,92,90,11.41,overcast clouds,0,0
330,Sitka,US,11/4/2019 8:04,37.17,-99.65,39,70,0,11.99,clear sky,0,0
331,Flinders,AU,11/4/2019 8:04,-34.58,150.85,68,77,75,10.29,broken clouds,0,0
332,Nuuk,GL,11/4/2019 8:04,64.17,-51.74,28.4,63,100,5.82,overcast clouds,0,0
333,Saeby,DK,11/4/2019 8:04,57.33,10.52,44.01,93,75,17.22,light rain,0,0
334,Hualmay,PE,11/4/2019 8:04,-11.1,-77.61,60.19,84,96,2.62,overcast clouds,0,0
335,Merauke,ID,11/4/2019 8:04,-8.49,140.4,79.65,75,100,7.47,overcast clouds,0,0
336,Zabol,IR,11/4/2019 8:04,31.03,61.49,73.4,35,0,21.92,clear sky,0,0
337,Kardla,EE,11/4/2019 8:04,58.44,26.57,39.2,93,90,12.75,light intensity drizzle,0,0
338,Rosarito,CO,11/4/2019 8:04,4.91,-75.23,64.36,97,100,2.06,moderate rain,5.38,0
339,Dongsheng,CN,11/4/2019 8:04,29.72,112.52,71.33,40,0,7.67,clear sky,0,0
340,Tshane,BW,11/4/2019 8:04,-24.02,21.87,93.78,12,0,11.21,clear sky,0,0
341,Sisimiut,GL,11/4/2019 8:04,66.94,-53.67,20.59,66,96,8.77,overcast clouds,0,0
342,Katsuura,JP,11/4/2019 8:04,33.93,134.5,64.4,45,40,13.87,scattered clouds,0,0
343,Mattru,SL,11/4/2019 8:04,7.62,-11.83,80.51,81,1,2.35,clear sky,0,0
344,Dingle,PH,11/4/2019 8:04,11,122.67,80.08,85,84,7.31,light rain,1.06,0
345,Christchurch,NZ,11/4/2019 8:04,-43.53,172.64,70,63,99,5.82,overcast clouds,0,0
346,Thompson,CA,11/4/2019 8:04,55.74,-97.86,10.4,72,90,10.29,light snow,0,0
347,Yerbogachen,RU,11/4/2019 8:04,61.28,108.01,5.27,88,100,7.31,overcast clouds,0,0
348,Kieta,PG,11/4/2019 8:04,-6.22,155.63,80.83,84,100,14.05,moderate rain,5.31,0
349,Clinton,US,11/4/2019 8:04,41.28,-72.53,43,92,1,1.72,clear sky,0,0
350,Axim,GH,11/4/2019 8:04,4.87,-2.24,85.86,67,0,1.59,clear sky,0,0
351,Pineville,US,11/4/2019 8:04,31.32,-92.43,48.2,87,1,1.88,clear sky,0,0
352,Carahue,CL,11/4/2019 8:04,-38.71,-73.16,50,87,90,9.17,overcast clouds,0,0
353,Klaksvik,FO,11/4/2019 8:04,62.23,-6.59,39.2,75,100,10.29,light rain,0,0
354,Ust-Tsilma,RU,11/4/2019 8:04,65.44,52.15,31.68,90,100,11.32,light snow,0,0.88
355,Chokurdakh,RU,11/4/2019 8:04,70.62,147.9,-3.19,95,92,7.76,overcast clouds,0,0
356,Limanowa,PL,11/4/2019 8:04,49.71,20.42,63,82,75,9.17,broken clouds,0,0
357,Yatou,CM,11/4/2019 8:04,3.63,9.81,73.4,100,75,13.87,thunderstorm with heavy rain,0,0
358,Nishihara,JP,11/4/2019 8:04,35.74,139.53,66.2,59,20,2.24,few clouds,0,0
359,Ust-Nera,RU,11/4/2019 8:04,64.57,143.24,-6.49,99,35,1.07,scattered clouds,0,0
360,Tieli,CN,11/4/2019 8:04,46.98,128.05,31.39,36,33,6.98,scattered clouds,0,0
361,Vardo,US,11/4/2019 8:04,39.62,-77.74,35.6,86,1,1.88,clear sky,0,0
362,Lipin Bor,RU,11/4/2019 8:04,60.26,37.97,34.03,95,100,5.57,light snow,0,0.56
363,Okhotsk,RU,11/4/2019 8:04,59.36,143.24,22.75,73,100,7.49,overcast clouds,0,0
364,Arroyo,BO,11/4/2019 8:04,-11.08,-66.08,74.12,79,99,1.74,overcast clouds,0,0
365,Ensley,US,11/4/2019 8:04,33.51,-86.89,45,86,1,3.89,clear sky,0,0
366,Leh,IN,11/4/2019 8:04,34.16,77.58,30.87,34,36,5.99,light snow,0,0.31
367,Zhicheng,CN,11/4/2019 8:04,35.04,112.59,64.98,47,0,3.78,clear sky,0,0
368,Abu Kamal,SY,11/4/2019 8:04,34.45,40.92,75.45,30,0,6.04,clear sky,0,0
369,Dutlwe,BW,11/4/2019 8:04,-23.98,23.93,91.98,14,0,10.67,clear sky,0,0
370,Fantanele,RO,11/4/2019 8:04,46.12,21.4,63,82,100,17.22,light rain,1.25,0
371,Aksu,KZ,11/4/2019 8:04,52.04,76.93,32,70,90,13.42,overcast clouds,0,0
372,Gangtok,IN,11/4/2019 8:04,27.33,88.61,56.23,67,91,1.61,light rain,1.63,0
373,Saldanha,PT,11/4/2019 8:04,41.42,-6.55,54.09,84,100,20.33,light rain,0.19,0
374,Pacific Grove,US,11/4/2019 8:04,36.62,-121.92,55.99,61,1,4.7,clear sky,0,0
375,Natal,BR,11/4/2019 8:04,-5.81,-35.21,75.2,88,40,5.82,scattered clouds,0,0
376,Fortuna,US,11/4/2019 8:00,40.6,-124.16,46.4,100,90,3.44,overcast clouds,0,0
377,Nikolsk,RU,11/4/2019 8:04,59.53,45.45,37.06,96,100,11.3,light rain,1.81,0
378,Durazno,UY,11/4/2019 8:04,-33.38,-56.52,58.37,92,77,9.51,broken clouds,0,0
379,Trairi,BR,11/4/2019 8:04,-3.28,-39.27,75.49,85,33,5.95,light rain,0.19,0
380,Gizo,IL,11/4/2019 8:04,31.8,34.94,79,50,0,2.24,clear sky,0,0
381,Caibarien,CU,11/4/2019 8:04,22.52,-79.47,69.8,94,5,2.24,clear sky,0,0
382,Alcaniz,ES,11/4/2019 8:04,41.05,-0.13,62.01,65,3,24.49,clear sky,0,0
383,Katsina,NG,11/4/2019 8:04,12.99,7.6,88.16,14,36,13.65,scattered clouds,0,0
384,Manaus,BR,11/4/2019 8:04,-3.13,-59.98,78.8,83,67,2.24,broken clouds,0,0
385,Saint-Pierre,FR,11/4/2019 8:04,48.95,4.24,51.8,100,90,18.34,overcast clouds,0,0
386,Walvis Bay,NA,11/4/2019 8:04,-22.95,14.51,84.2,18,0,8.05,clear sky,0,0
387,Berdigestyakh,RU,11/4/2019 8:04,62.1,126.7,14.9,88,100,5.88,overcast clouds,0,0
388,Morondava,MG,11/4/2019 8:04,-20.3,44.28,103.41,11,10,4.65,clear sky,0,0
389,Olinda,AU,11/4/2019 8:04,-37.84,145.39,57,81,40,6.93,scattered clouds,0,0
390,Kipini,KE,11/4/2019 8:04,-2.53,40.53,86,66,75,11.59,broken clouds,0,0
391,Pathein,MM,11/4/2019 8:04,16.78,94.73,85.77,70,8,3.94,light rain,1.81,0
392,Nizwa,OM,11/4/2019 8:04,22.93,57.53,82.8,37,21,7.2,few clouds,0,0
393,Sapa,PH,11/4/2019 8:04,14.32,120.76,88,74,75,10.29,broken clouds,0,0
394,Vanimo,PG,11/4/2019 8:04,-2.67,141.3,81.73,75,100,12.88,overcast clouds,0,0
395,Auki,NG,11/4/2019 8:04,12.18,6.51,88.25,20,99,10.02,overcast clouds,0,0
396,May Pen,JM,11/4/2019 8:04,17.97,-77.26,78.8,69,20,5.82,few clouds,0,0
397,Loreto,PY,11/4/2019 8:04,-23.27,-57.32,81.19,46,60,6.76,broken clouds,0,0
398,Teguldet,RU,11/4/2019 8:04,57.31,88.17,26.62,59,100,3.94,overcast clouds,0,0
399,Povenets,RU,11/4/2019 8:04,62.85,34.83,24.58,82,54,4.41,broken clouds,0,0
400,Mareeba,AU,11/4/2019 8:04,-16.99,145.42,80.6,65,94,10.29,overcast clouds,0,0
401,Sistranda,NO,11/4/2019 8:04,63.73,8.83,35.01,40,0,17.22,clear sky,0,0
402,Yumen,CN,11/4/2019 8:04,40.29,97.04,56.19,19,100,15.37,overcast clouds,0,0
403,Kargasok,RU,11/4/2019 8:04,59.06,80.87,20.34,82,0,2.42,clear sky,0,0
404,Cidreira,BR,11/4/2019 8:04,-30.17,-50.22,68.45,78,14,20.18,few clouds,0,0
405,Kichera,RU,11/4/2019 8:04,55.93,110.1,4.84,80,85,3.2,overcast clouds,0,0
406,Lom Sak,TH,11/4/2019 8:04,16.78,101.24,91.4,52,40,5.82,scattered clouds,0,0
407,Drayton Valley,CA,11/4/2019 8:04,53.22,-114.98,26.65,96,100,1.99,light snow,0,0.44
408,Leeton,AU,11/4/2019 8:04,-34.55,146.4,69.8,62,62,13.87,light rain,0.19,0
409,Brewster,US,11/4/2019 8:02,41.76,-70.08,46.4,56,1,6.93,clear sky,0,0
410,Awjilah,LY,11/4/2019 8:04,29.14,21.3,82.08,27,0,15.68,clear sky,0,0
411,Tymoshivka,UA,11/4/2019 8:04,48.98,32.07,60.21,73,100,21.9,overcast clouds,0,0
412,Castlemaine,AU,11/4/2019 8:00,-37.07,144.22,55.99,68,15,8.03,light rain,0.88,0
413,Barabai,ID,11/4/2019 8:04,-2.59,115.38,88.23,54,92,2.26,overcast clouds,0,0
414,Vila Velha,BR,11/4/2019 8:04,-3.71,-38.6,79,83,40,10.29,scattered clouds,0,0
415,Cururupu,BR,11/4/2019 8:04,-1.82,-44.87,74.12,92,3,3.47,clear sky,0,0
416,Mecca,SA,11/4/2019 8:04,21.43,39.83,92.57,25,0,9.08,clear sky,0,0
417,Ostrovnoy,RU,11/4/2019 8:04,68.05,39.51,29.41,95,100,24,light snow,0,0.44
418,Poum,MK,11/4/2019 8:04,41.28,20.71,57.2,82,90,17.22,moderate rain,0,0
419,Senneterre,CA,11/4/2019 8:04,48.39,-77.24,28.4,86,90,3.36,overcast clouds,0,0
420,Vostok,RU,11/4/2019 8:04,46.45,135.83,17.74,73,0,2.08,clear sky,0,0
421,Tomatlan,MX,11/4/2019 8:04,19.93,-105.25,67.89,88,100,2.93,overcast clouds,0,0
422,Oistins,BB,11/4/2019 8:04,13.07,-59.53,82.4,74,20,14.99,few clouds,0,0
423,Kem,UG,11/4/2019 8:04,2.68,33.77,88.27,29,95,13.31,overcast clouds,0,0
424,Bukachacha,RU,11/4/2019 8:04,52.99,116.91,17.98,62,47,13.29,scattered clouds,0,0
425,Makakilo City,US,11/4/2019 8:04,21.35,-158.09,78.8,100,90,2.44,light intensity drizzle,0,0
426,Ewa Beach,US,11/4/2019 8:04,21.32,-158.01,78.8,100,90,2.44,light intensity drizzle,0,0
427,Strelka,RU,11/4/2019 8:04,58.08,93.03,24.44,57,100,6.35,overcast clouds,0,0
428,Marrakesh,MA,11/4/2019 8:04,31.63,-7.99,62.6,88,75,4.7,broken clouds,0,0
429,Geraldton,CA,11/4/2019 8:04,49.72,-86.95,26.6,86,75,3.36,broken clouds,0,0
430,Anadyr,RU,11/4/2019 8:04,64.73,177.51,23,92,90,6.71,overcast clouds,0,0
431,Green River,US,11/4/2019 8:04,41.53,-109.47,37.99,54,1,6.93,clear sky,0,0
432,Shache,CN,11/4/2019 8:04,38.42,77.24,63.93,17,69,3.29,broken clouds,0,0
433,Belousovka,KZ,11/4/2019 8:04,50.13,82.52,51.8,53,40,2.24,scattered clouds,0,0
434,Huambo,AO,11/4/2019 8:04,-12.78,15.73,72.52,64,75,8.01,light rain,0.81,0
435,Umm Lajj,SA,11/4/2019 8:04,25.02,37.27,89.37,10,0,9.1,clear sky,0,0
436,Mahibadhoo,MV,11/4/2019 8:04,3.78,72.97,83.25,67,36,4.81,scattered clouds,0,0
437,Thinadhoo,MV,11/4/2019 8:04,0.53,72.93,83.59,63,33,2.21,scattered clouds,0,0
438,Nakhon Phanom,LA,11/4/2019 8:04,17.4,104.79,84.2,58,75,3.36,broken clouds,0,0
439,Darhan,MN,11/4/2019 8:04,49.49,105.92,29.44,42,0,2.86,clear sky,0,0
440,Half Moon Bay,US,11/4/2019 8:04,37.46,-122.43,60.01,93,90,4.45,fog,0,0
441,Hami,CN,11/4/2019 8:04,42.84,93.51,62.73,15,60,3.13,broken clouds,0,0
442,Zapolyarnyy,RU,11/4/2019 8:04,69.43,30.82,26.6,79,40,39.15,scattered clouds,0,0
443,Monrovia,LR,11/4/2019 8:04,6.33,-10.8,75.2,94,40,4.38,mist,0,0
444,Alyangula,AU,11/4/2019 8:04,-13.85,136.42,78.8,88,64,3.36,light intensity shower rain,0,0
445,Gillette,US,11/4/2019 8:04,44.29,-105.5,33.01,94,90,9.17,light rain,0,0
446,Aklavik,CA,11/4/2019 8:04,68.22,-135.01,14,92,40,5.82,scattered clouds,0,0
447,Rio Claro,BR,11/4/2019 8:04,-22.41,-47.56,71.42,80,73,1.66,broken clouds,0,0
448,Atasu,KZ,11/4/2019 8:04,48.68,71.64,37.72,51,65,19.64,broken clouds,0,0
449,Hirara,JP,11/4/2019 8:04,24.8,125.28,75.2,78,75,14.99,light rain,0,0
450,Nowshera,PK,11/4/2019 8:04,34.02,71.98,77,47,20,4.7,haze,0,0
451,Pimentel,BR,11/4/2019 8:04,-3.7,-45.5,73.2,95,0,3.94,clear sky,0,0
452,Birjand,IR,11/4/2019 8:04,32.86,59.22,71.6,21,0,9.31,clear sky,0,0
453,Uvalde,US,11/4/2019 8:04,29.21,-99.79,57,87,1,4.7,clear sky,0,0
454,Khandbari,NP,11/4/2019 8:04,27.38,87.21,51.33,87,57,2.19,light rain,2.25,0
455,Ashington,GB,11/4/2019 8:04,55.18,-1.57,48,100,40,4.7,scattered clouds,0,0
456,Saint-Ambroise,CA,11/4/2019 8:04,48.56,-71.32,35.01,69,75,11.41,broken clouds,0,0
457,Te Anau,NZ,11/4/2019 8:04,-45.41,167.72,51.15,95,100,2.93,light rain,0.69,0
458,Sri Aman,MY,11/4/2019 8:04,1.24,111.46,78.8,94,75,0.92,broken clouds,0,0
459,Bilibino,RU,11/4/2019 8:04,68.06,166.44,6.42,83,55,3.06,broken clouds,0,0
460,Nicolas Bravo,MX,11/4/2019 8:04,24.39,-104.74,55.99,79,94,4.25,light rain,1.19,0
461,Cabcaben,PH,11/4/2019 8:04,14.45,120.59,88,74,75,10.29,broken clouds,0,0
462,Bindura,ZW,11/4/2019 8:04,-17.3,31.33,89.31,23,0,7.05,clear sky,0,0
463,Zdvinsk,RU,11/4/2019 8:04,54.7,78.67,31.37,54,100,13.24,overcast clouds,0,0
464,Freeport,BS,11/4/2019 8:01,26.54,-78.7,78.66,80,0,14.61,light rain,0.25,0
465,Omboue,GA,11/4/2019 8:04,-1.57,9.26,73.33,96,100,4.14,moderate rain,7.63,0
466,Richards Bay,ZA,11/4/2019 8:04,-28.77,32.06,71.33,74,98,9.4,light rain,0.19,0
467,Aborlan,PH,11/4/2019 8:04,9.44,118.55,84.2,83,75,4.7,broken clouds,0,0
468,Isangel,VU,11/4/2019 8:04,-19.55,169.27,72.28,79,80,14.45,broken clouds,0,0
469,Prokuplje,RS,11/4/2019 8:04,43.23,21.59,71.6,46,20,11.41,few clouds,0,0
470,Sioux Lookout,CA,11/4/2019 8:00,50.1,-91.92,30.2,92,90,6.93,light snow,0,0
471,Port Hedland,AU,11/4/2019 8:05,-20.31,118.58,95,30,40,14.99,scattered clouds,0,0
472,Itaituba,BR,11/4/2019 8:05,-4.26,-55.99,75.06,72,4,1.77,clear sky,0,0
473,Dondo,MZ,11/4/2019 8:05,-19.62,34.74,101.55,19,0,4.68,clear sky,0,0
474,Rio Grande,BR,11/4/2019 8:00,-32.03,-52.1,57.99,98,0,8.37,clear sky,0,0
475,Tuy Hoa,VN,11/4/2019 8:05,13.08,109.3,78.21,84,100,27.25,moderate rain,3.75,0
476,Svetlaya,RU,11/4/2019 8:05,46.54,138.33,41.32,47,0,11.83,clear sky,0,0
477,Ahuimanu,US,11/4/2019 8:00,21.44,-157.84,78.8,100,90,2.44,light intensity drizzle,0,0
478,Sao Joao Da Barra,BR,11/4/2019 8:05,-21.64,-41.05,74.73,78,0,5.93,clear sky,0,0
479,Mount Gambier,AU,11/4/2019 8:05,-37.83,140.78,55.4,62,40,18.34,scattered clouds,0,0
480,Harper,US,11/4/2019 8:05,30.3,-99.24,57,76,1,5.82,clear sky,0,0
481,Bilma,NE,11/4/2019 8:05,18.69,12.92,91.18,11,0,12.62,clear sky,0,0
482,Manzanillo,MX,11/4/2019 8:05,19.05,-104.32,80.01,76,100,4.7,overcast clouds,0,0
483,Carutapera,BR,11/4/2019 8:05,-1.2,-46.02,81.23,79,0,17.27,clear sky,0,0
484,Valentin Gomez Farias,MX,11/4/2019 8:05,24.05,-104.7,55.99,79,100,2.21,light rain,0.75,0
485,Port Shepstone,ZA,11/4/2019 8:05,-30.74,30.45,67.84,80,99,9.62,light rain,0.25,0
486,Ust-Kishert,RU,11/4/2019 8:05,57.36,57.24,26.98,93,100,17.29,light snow,0,0.38
487,Cesis,LV,11/4/2019 8:05,57.31,25.27,48.99,98,100,5.99,light rain,0.69,0
488,Amahai,ID,11/4/2019 8:05,-3.31,129,82.11,70,100,4.27,overcast clouds,0,0
489,Valle De Allende,MX,11/4/2019 8:05,26.94,-105.39,57.42,73,64,5.3,broken clouds,0,0
490,Indiaroba,BR,11/4/2019 8:05,-11.53,-37.51,75.56,89,24,4.63,light rain,0.19,0
491,Yarada,IN,11/4/2019 8:05,17.65,83.27,91.4,43,0,6.93,haze,0,0
492,Moyale,ET,11/4/2019 8:05,3.52,39.05,77.72,65,98,11.12,light rain,0.63,0
493,Morehead,US,11/4/2019 8:05,38.18,-83.43,39.2,64,1,3.36,clear sky,0,0
494,Kirakira,SB,11/4/2019 8:05,-10.46,161.92,78.28,85,44,5.5,scattered clouds,0,0
495,Ler,NO,11/4/2019 8:05,63.2,10.3,32,73,0,13.87,clear sky,0,0
496,Ballina,IE,11/4/2019 8:05,54.11,-9.15,46,100,75,5.82,light rain,0,0
497,Maralal,KE,11/4/2019 8:05,1.1,36.7,79.38,36,20,10.22,few clouds,0,0
498,Aykhal,RU,11/4/2019 8:05,65.95,111.51,-9.41,76,75,4.47,broken clouds,0,0
499,Rocha,UY,11/4/2019 8:05,-34.48,-54.34,52.3,96,57,5.17,broken clouds,0,0
500,Namatanai,PG,11/4/2019 8:05,-3.66,152.44,82.27,77,100,7.96,moderate rain,5.25,0
501,Sorland,NO,11/4/2019 8:05,67.67,12.69,39.2,64,40,14.99,shower rain,0,0
502,Kuzino,RU,11/4/2019 8:05,57.02,59.44,27.45,81,100,10.87,overcast clouds,0,0
503,Broome,GB,11/4/2019 8:05,52.47,1.45,48,100,40,3.36,light intensity drizzle rain,0,0
504,Ixtapa,MX,11/4/2019 8:05,20.71,-105.21,79,88,5,3.36,clear sky,0,0
505,Agirish,RU,11/4/2019 8:05,61.92,63.02,24.37,80,100,14.23,overcast clouds,0,0
506,Palana,RU,11/4/2019 8:05,59.08,159.95,32.81,86,19,12.46,few clouds,0,0
507,Lethem,GY,11/4/2019 8:05,3.38,-59.8,78.03,73,50,11.18,scattered clouds,0,0
508,Kota Tinggi,MY,11/4/2019 8:05,1.73,103.9,91,66,75,4.7,broken clouds,0,0
509,Kodiak,US,11/4/2019 8:05,39.95,-94.76,48.99,70,1,5.82,clear sky,0,0
510,Xiuyan,CN,11/4/2019 8:05,40.29,123.27,45,32,0,3.69,clear sky,0,0
511,Bubaque,GW,11/4/2019 8:05,11.28,-15.83,83.26,74,70,7.92,broken clouds,0,0
512,Coihaique,CL,11/4/2019 8:05,-45.58,-72.07,39.2,93,90,2.24,light rain,0,0
513,Guryevsk,RU,11/4/2019 8:05,54.28,85.93,31.55,46,100,5.57,overcast clouds,0,0
514,Coruripe,BR,11/4/2019 8:05,-10.12,-36.18,77.94,78,100,14.43,light rain,0.19,0
515,Sabang,PH,11/4/2019 8:05,13.8,121.11,84.99,83,52,3,broken clouds,0,0
516,Samfya,ZM,11/4/2019 8:05,-11.37,29.56,93.49,20,0,8.5,clear sky,0,0
517,Kununurra,AU,11/4/2019 8:05,-15.77,128.74,89.6,46,75,18.34,broken clouds,0,0
518,Cairns,AU,11/4/2019 8:02,-16.92,145.77,80.6,65,89,10.29,overcast clouds,0,0
519,Burnie,AU,11/4/2019 8:05,-41.05,145.91,52,53,37,8.01,scattered clouds,0,0
520,Neryungri,RU,11/4/2019 8:05,56.66,124.71,9.68,94,100,11.52,snow,0,2.19
521,Smolensk,RU,11/4/2019 8:05,54.79,32.05,51.46,88,100,13.27,overcast clouds,0,0
522,Saint-Pie,CA,11/4/2019 8:05,45.5,-72.91,37.4,94,90,12.75,overcast clouds,0,0
523,Chalisgaon,IN,11/4/2019 8:05,20.46,75,85.55,53,84,6.46,broken clouds,0,0
524,Calvinia,ZA,11/4/2019 8:05,-31.47,19.78,75.2,31,0,16.11,clear sky,0,0
525,Matara,BI,11/4/2019 8:05,-3.48,29.48,80.6,61,20,8.23,few clouds,0,0
526,Coquimbo,CL,11/4/2019 8:05,-29.95,-71.34,57.2,76,58,3.36,broken clouds,0,0
527,Tarakan,ID,11/4/2019 8:05,3.3,117.63,83.64,71,100,5.17,overcast clouds,0,0
528,Kysyl-Syr,RU,11/4/2019 8:05,63.9,122.77,6.85,96,99,4.61,overcast clouds,0,0
529,Ergani,TR,11/4/2019 8:05,38.27,39.76,59,50,20,3.36,few clouds,0,0
530,Iquique,CL,11/4/2019 8:05,-20.22,-70.14,64.4,72,90,4.7,overcast clouds,0,0
531,Tromso,NO,11/4/2019 8:05,69.65,18.96,30.2,92,75,9.17,broken clouds,0,0
532,Qinhuangdao,CN,11/4/2019 8:05,39.94,119.59,48.94,40,0,3.89,clear sky,0,0
533,Cam Ranh,VN,11/4/2019 8:05,11.92,109.15,82.4,83,75,4.7,broken clouds,0,0
534,Shimanovsk,RU,11/4/2019 8:05,52,127.67,25.25,88,100,10.09,overcast clouds,0,0
535,Kologriv,RU,11/4/2019 8:05,58.83,44.31,37.31,97,100,11.45,moderate rain,3.31,0
536,Llandrindod Wells,GB,11/4/2019 8:05,52.24,-3.38,46.99,96,63,3.65,light rain,0.38,0
